{"2":{"driverId":2,"sights":[{"place_id":"ChIJabBZUMjJvkcR_ltKWpED4pg","lat":50.98808879999999,"lng":7.515915799999999,"vicinity":"Gummersbach OT Dieringhausen"},{"place_id":"ChIJ-YZ_DQe0vkcRuzwlkxkUjgU","lat":51.0213911,"lng":7.6488715,"vicinity":"Wallstraße 1, Bergneustadt"},{"place_id":"ChIJaWbqHzexvkcR2vkZwCthYWY","lat":50.9876449,"lng":7.656717700000001,"vicinity":"Südhang 32, Reichshof"},{"place_id":"ChIJwx9A3InLvkcROFiprSgRnIg","lat":51.0535897,"lng":7.4514304,"vicinity":"Eibachstraße 55, Lindlar"},{"place_id":"ChIJ4wkx8pq3vkcRTm7KqH0RKDY","lat":50.9465336,"lng":7.5631968,"vicinity":"Ohlerhammer, Wiehl"},{"place_id":"ChIJZxr4BiXJvkcR8np881Afn28","lat":50.9929216,"lng":7.4464807,"vicinity":"Im Krümmel 39, Engelskirchen"},{"place_id":"ChIJR6UmGTzLvkcRKOYrleFQau0","lat":51.090131,"lng":7.494546600000001,"vicinity":"Kapellenweg 2-4, Marienheide"},{"place_id":"ChIJMxhbqMxKuUcR0Z1vZBEXM34","lat":51.10046999999999,"lng":7.604080000000002,"vicinity":"Flugplatz, Steinsmark 2, Meinerzhagen"},{"place_id":"ChIJp9cR99PJvkcRte6QW2SrjqQ","lat":50.9834872,"lng":7.5322662,"vicinity":"Hohler Straße 2, Gummersbach"},{"place_id":"ChIJF1tlAvq0vkcR7o6IreZ4Msc","lat":51.06176,"lng":7.62623,"vicinity":"Genkelsperre 1, Gummersbach"},{"place_id":"ChIJeUM72Dq3vkcRKJSalijsRWI","lat":51.0071135,"lng":7.5780748,"vicinity":"Eichenweg 1, Gummersbach"},{"place_id":"ChIJkV9QnvW3vkcRHRWcWLW6Oa4","lat":51.0071135,"lng":7.5780748,"vicinity":"Eichenweg 1, Gummersbach"},{"place_id":"ChIJ-at4p9a3vkcRgZjSIVMFR2w","lat":51.0044946,"lng":7.572368199999998,"vicinity":"Kölner Straße 279, Gummersbach"},{"place_id":"ChIJaRee2Eq3vkcRCGVqFgkGDMw","lat":50.9863058,"lng":7.5505843,"vicinity":"Höfer-Ohl 6-8, Gummersbach"},{"place_id":"ChIJs_DgnL22vkcR5BlwuoEeAPk","lat":51.0013009,"lng":7.624577400000001,"vicinity":"Gummersbach"},{"place_id":"ChIJqcJvoEC1vkcR6Xft0tLo1Qw","lat":51.03612340000001,"lng":7.6323327,"vicinity":"Sperrmauer, Gummersbach"},{"place_id":"ChIJ0aS-0AW0vkcR030WxljngaQ","lat":51.02139969999999,"lng":7.648783999999999,"vicinity":"Wallstraße 1, Bergneustadt"},{"place_id":"ChIJB3aJ9li0vkcRZ1i4rmh68VM","lat":51.05443899999999,"lng":7.628685999999999,"vicinity":"Germany"},{"place_id":"ChIJyw-OX4C3vkcRTvt5d7atgJA","lat":50.98449970000001,"lng":7.621353199999999,"vicinity":"Gartenstraße 22, Reichshof"},{"place_id":"ChIJQx0g_7XLvkcRUN5ANb481v4","lat":51.06400039999999,"lng":7.5065216,"vicinity":"Marienheide"}]}}