{"1":{"driverId":"1","sights":[{"place_id":"ChIJtQ1IJDoosUcRwpnqEO6fr8E","name":"Weser Tower","lat":53.0823687,"lng":8.788667599999998,"vicinity":"Am Weser-Terminal 1, Bremen"},{"place_id":"ChIJU6csoBAosUcR6zaE5SdyF48","name":"Bremen Town Hall","lat":53.0760221,"lng":8.8079321,"vicinity":"Am Markt 21, Bremen"},{"place_id":"ChIJ7eOMbRoosUcRfRbQSyjYwGo","name":"Bremen Roland","lat":53.07586569999999,"lng":8.807300500000002,"vicinity":"Am Markt, Bremen"},{"place_id":"ChIJ52_SniwmsUcReri0JHOifmk","name":"Universum Bremen","lat":53.10670280000001,"lng":8.8449861,"vicinity":"Wiener Straße 1a, Bremen"},{"place_id":"ChIJW2a-gBAosUcRW9ORPq1Dnf4","name":"St. Petri Dom Bremen","lat":53.0755426,"lng":8.8090624,"vicinity":"Sandstraße 10-12, Bremen"},{"place_id":"ChIJQT2rGQUosUcRsY6rZVVkj5k","name":"Kunsthalle Bremen","lat":53.0729638,"lng":8.8135821,"vicinity":"Am Wall 207, Bremen"},{"place_id":"ChIJ3SdPAxoosUcRXjQDQqSCRxY","name":"Böttcherstraße","lat":53.07495229999999,"lng":8.805601399999999,"vicinity":"Böttcherstraße, Bremen"},{"place_id":"ChIJ29FYVz0osUcRSEcXh_y_0UA","name":"Weserburg | Museum of Modern Art","lat":53.0764839,"lng":8.7988008,"vicinity":"Teerhof 20, Bremen"},{"place_id":"ChIJrZPsvxMosUcR7bPJyK4wzXk","name":"Spielbank Bremen","lat":53.0773114,"lng":8.8011749,"vicinity":"Schlachte 26, Bremen"},{"place_id":"ChIJP0WDUBoosUcRz1uT1G7CVxM","name":"St. John's Church","lat":53.0737215,"lng":8.8081316,"vicinity":"Hohe Straße 2, Bremen"},{"place_id":"ChIJay_SnxAosUcRmgD0g70d60g","name":"Bremen Hole","lat":53.0756401,"lng":8.8075624,"vicinity":"Am Markt 20, Bremen"},{"place_id":"ChIJ858-3DsosUcRpIdb2bc6lUA","name":"Museumsgarten/Fockegarten","lat":53.08152279999999,"lng":8.7904891,"vicinity":"Stephanietorsteinweg Am Wall 207 & 208 & 209 & 212, Bremen"},{"place_id":"ChIJN1D3fBwosUcRpyj9q0lfp38","name":"Planetarium","lat":53.0698008,"lng":8.807252300000002,"vicinity":"Werderstraße 73, Bremen"},{"place_id":"ChIJe0tapRAosUcRFQfWXdaWvug","name":"Bremen Parliament","lat":53.075413,"lng":8.807454,"vicinity":"Am Markt 20, Bremen"},{"place_id":"ChIJP0guMQUosUcRYwod4YWJE4U","name":"Forum am Wall","lat":53.0738522,"lng":8.8123658,"vicinity":"Am Wall 201, Bremen"},{"place_id":"ChIJqZtEdhAosUcR-CoD5mLK4co","name":"House of Science","lat":53.0754623,"lng":8.8102735,"vicinity":"Sandstraße 4/5, Bremen"},{"place_id":"ChIJaVKZ4RoosUcR33Ar55IbBoI","name":"Schnoor","lat":53.0729878,"lng":8.809211699999999,"vicinity":"Schnoor, Bremen"},{"place_id":"ChIJnaYwhxAosUcRqpJmjx-0QxE","name":"\"Spuckstein\" am Bremer Dom","lat":53.0758155,"lng":8.8090198,"vicinity":"Domshof 1, Bremen"},{"place_id":"ChIJnbajgxAosUcRRh61sp8MF48","name":"Bismarck monument","lat":53.07575199999999,"lng":8.808547899999999,"vicinity":"Domshof, Bremen"},{"place_id":"ChIJ5SPxlxAosUcRNHwPJvLXbeQ","name":"Town Musicians of Bremen","lat":53.0762054,"lng":8.807511199999999,"vicinity":"Schoppensteel 1, Bremen"}]}}