{"3":{"driverId":"3","sights":[{"place_id":"ChIJHecoQDXbmUcRaZ5zXsJie0o","lat":48.7779689,"lng":9.1818709,"vicinity":"Schloßplatz 4, Stuttgart"},{"place_id":"ChIJk-0D6c3amUcRNWhZaGzpniM","lat":48.80717749999999,"lng":9.186263799999999,"vicinity":"Nordbahnhof, Stuttgart"},{"place_id":"ChIJkd8d2v7EmUcRlEv7v_H0ZsE","lat":48.7881453,"lng":9.233982000000001,"vicinity":"Mercedesstraße 100, Stuttgart"},{"place_id":"ChIJ6zPNHzrbmUcR8OCT-Lp7jU4","lat":48.78274390000001,"lng":9.169994200000001,"vicinity":"Hegelplatz 1, Stuttgart"},{"place_id":"ChIJ1Q2AB8vEmUcRVUkv1rHzrV8","lat":48.7801002,"lng":9.1865854,"vicinity":"Konrad-Adenauer-Straße 30-32, Stuttgart"},{"place_id":"ChIJy3mewTXbmUcRovnNWdLRP0Q","lat":48.7783294,"lng":9.1775786,"vicinity":"Kleiner Schloßplatz 1, Stuttgart"},{"place_id":"ChIJ21_INsvEmUcR0Qjtpb1Zw6w","lat":48.77969239999999,"lng":9.1842934,"vicinity":"Oberer Schloßgarten 6, Stuttgart"},{"place_id":"ChIJYThpJDDFmUcRKmmc9AxhUK8","lat":48.80409510000001,"lng":9.207998400000001,"vicinity":"Wilhelma 13, Stuttgart"},{"place_id":"ChIJbwUJpjXbmUcROnJATElzb4E","lat":48.77847850000001,"lng":9.1795481,"vicinity":"Schloßplatz, Stuttgart"},{"place_id":"ChIJDZ4BHcvEmUcRTUTEbWu2i0E","lat":48.7788068,"lng":9.185947799999997,"vicinity":"Konrad-Adenauer-Straße 16, Stuttgart"},{"place_id":"ChIJ1bMSdkrbmUcRVItg-n1miq0","lat":48.776647,"lng":9.1778987,"vicinity":"Stiftstraße 12, Stuttgart"},{"place_id":"ChIJBWpBedfamUcR4UuGeww8oD4","lat":48.8007363,"lng":9.1771144,"vicinity":"Stuttgart"},{"place_id":"ChIJ2b8uAFnEmUcRaMmC8yTnvig","lat":48.782292,"lng":9.2331029,"vicinity":"Langwiesenweg 30, Stuttgart"},{"place_id":"ChIJ_aPR-czEmUcRRNepBO7fYIY","lat":48.78332,"lng":9.186880000000002,"vicinity":"Willy-Brandt-Straße 25, Stuttgart"},{"place_id":"ChIJXwzhGTPbmUcRhA37tG9zans","lat":48.78446539999999,"lng":9.183842799999999,"vicinity":"Am Schlossgarten (ehem. ZOB) 15/1, Stuttgart"},{"place_id":"ChIJnczxE0fbmUcRstkqnhcTHb8","lat":48.77623999999999,"lng":9.165189999999999,"vicinity":"Silberburgstraße 121, Stuttgart"},{"place_id":"ChIJf4LUMsPEmUcRMl-Jm-KmKJ0","lat":48.7844127,"lng":9.2067032,"vicinity":"Florianstraße 17, Stuttgart"},{"place_id":"ChIJwefsQCHbmUcRvqLrxSM8ACM","lat":48.79401319999999,"lng":9.167719100000001,"vicinity":"Feuerbacher Weg 46, Stuttgart"},{"place_id":"ChIJ0fOZzEvbmUcRTw5b5dKKR-M","lat":48.7742678,"lng":9.1763797,"vicinity":"Hirschstraße 27, Stuttgart"},{"place_id":"ChIJhSebizXbmUcRbWyQRkBchz8","lat":48.7769892,"lng":9.1779099,"vicinity":"Schillerplatz 1, Stuttgart"}]}}